,City,Country Code,Latitude,Longitude,Temperature,Humidity,Clouds,Wind,Date
0,makasar,ID,-5.14,119.42,75.2,100,40,2.24,1605978888
1,rikitea,PF,-23.12,-134.97,72.97,63,3,3.76,1605978568
2,garowe,SO,8.41,48.48,82.08,27,93,12.86,1605979119
3,east london,ZA,-33.02,27.91,78.8,69,0,4.7,1605978546
4,hermanus,ZA,-34.42,19.23,64.0,83,83,4.0,1605978561
5,mahe,IN,11.7,75.53,77.0,88,20,3.36,1605979120
6,ribeira grande,PT,38.52,-28.7,66.2,72,20,6.93,1605978576
7,hermanus,ZA,-34.42,19.23,64.0,84,83,5.99,1605979120
8,rupert,US,42.62,-113.68,28.4,86,75,3.36,1605979120
9,sibolga,ID,1.74,98.78,75.65,80,100,2.51,1605979033
10,ushuaia,AR,-54.8,-68.3,66.2,29,75,9.17,1605979120
11,kodiak,US,57.79,-152.41,39.2,60,75,16.11,1605979121
12,arraial do cabo,BR,-22.97,-42.03,77.77,61,40,8.05,1605979051
13,bluff,NZ,-46.6,168.33,48.0,79,97,5.99,1605979121
14,coihaique,CL,-45.58,-72.07,50.88,82,100,5.86,1605979121
15,butaritari,KI,3.07,172.79,81.45,77,92,15.84,1605979121
16,ushuaia,AR,-54.8,-68.3,66.2,29,75,9.17,1605978954
17,yumen,CN,40.28,97.2,6.35,67,0,7.9,1605979121
18,jamestown,US,42.1,-79.24,39.06,74,90,9.17,1605979122
19,port lincoln,AU,-34.73,135.87,66.29,68,49,9.69,1605979122
20,hambantota,LK,6.12,81.12,78.03,80,100,10.56,1605979122
21,bredasdorp,ZA,-34.53,20.04,66.2,63,35,11.41,1605979122
22,victoria,HK,22.29,114.16,71.67,86,45,13.06,1605978441
23,nikolskoye,RU,59.7,30.79,33.24,86,75,11.18,1605978600
24,meulaboh,ID,4.14,96.13,74.03,94,100,4.9,1605979123
25,avera,US,33.19,-82.53,69.82,49,1,5.82,1605978599
26,thompson,CA,55.74,-97.86,10.4,85,90,5.82,1605978592
27,bengkulu,ID,-3.8,102.27,77.11,90,100,7.47,1605978646
28,anadyr,RU,64.75,177.48,32.0,97,40,24.61,1605978686
29,broome,US,42.25,-75.83,44.55,66,75,10.29,1605978591
30,ushuaia,AR,-54.8,-68.3,66.2,29,75,9.17,1605978563
31,dikson,RU,73.51,80.55,17.69,96,93,18.12,1605978569
32,seydisehir,TR,37.42,31.85,42.49,75,19,4.79,1605979124
33,kapaa,US,22.08,-159.32,76.24,88,90,20.8,1605978574
34,kviteseid,NO,59.4,8.49,30.2,100,90,3.36,1605979124
35,qaqortoq,GL,60.72,-46.03,15.8,61,20,6.93,1605978598
36,zhigansk,RU,66.77,123.37,-4.79,91,100,19.69,1605978574
37,avarua,CK,-21.21,-159.78,71.6,100,100,3.36,1605978589
38,qaanaaq,GL,77.48,-69.36,6.76,91,93,1.1,1605978589
39,louth,GB,53.37,0.0,53.4,81,88,18.34,1605979125
40,calabozo,VE,8.92,-67.43,85.14,68,89,6.22,1605979125
41,jamestown,US,42.1,-79.24,39.36,74,90,10.29,1605978823
42,ushuaia,AR,-54.8,-68.3,66.2,29,75,9.17,1605978563
43,rikitea,PF,-23.12,-134.97,72.97,63,3,3.76,1605978568
44,hilo,US,19.73,-155.09,70.54,88,90,8.25,1605978563
45,belaya gora,RU,68.53,146.42,-6.38,91,100,2.71,1605978629
46,muriti,TZ,-1.98,32.92,75.2,73,20,8.97,1605979126
47,bontang,ID,0.13,117.5,80.85,80,76,1.79,1605979126
48,gamba,GA,-2.65,10.0,77.65,86,100,9.08,1605978657
49,concepcion del uruguay,AR,-32.48,-58.24,86.0,32,0,1.99,1605979126
50,arcachon,FR,44.59,-1.05,46.67,76,0,4.7,1605979126
51,faanui,PF,-16.48,-151.75,79.72,72,48,8.61,1605978621
52,chuy,UY,-33.7,-53.46,69.22,50,63,9.37,1605978610
53,chuy,UY,-33.7,-53.46,69.22,50,63,9.37,1605978610
54,vestmannaeyjar,IS,63.44,-20.27,37.4,78,40,12.75,1605978587
55,huesca,ES,42.14,-0.41,46.18,61,0,3.6,1605978877
56,pevek,RU,69.7,170.31,10.53,96,100,4.85,1605978613
57,punta arenas,CL,-53.15,-70.92,60.8,48,0,16.11,1605978563
58,albany,US,42.6,-73.97,49.33,46,100,4.0,1605978567
59,thompson,CA,55.74,-97.86,10.4,85,90,5.82,1605978592
60,megion,RU,61.03,76.11,26.6,92,0,8.95,1605979128
61,paita,PE,-5.09,-81.11,77.0,57,0,19.46,1605979129
62,alyangula,AU,-13.85,136.42,77.0,88,7,7.4,1605979129
63,provideniya,RU,64.38,-173.3,29.48,96,100,29.86,1605978565
64,rikitea,PF,-23.12,-134.97,72.97,63,3,3.76,1605978568
65,ponta do sol,PT,32.67,-17.1,68.86,77,20,5.82,1605978619
66,guangyuan,CN,32.44,105.82,29.48,88,98,21.99,1605979130
67,mataura,NZ,-46.19,168.86,48.0,79,99,8.99,1605978570
68,victoria,HK,22.29,114.16,71.67,86,45,13.06,1605978441
69,thompson,CA,55.74,-97.86,10.4,85,90,5.82,1605978592
70,vaini,TO,-21.2,-175.2,73.4,88,75,4.7,1605978596
71,punta arenas,CL,-53.15,-70.92,60.8,48,0,16.11,1605978563
72,ushuaia,AR,-54.8,-68.3,66.2,29,75,9.17,1605978563
73,thompson,CA,55.74,-97.86,10.4,85,90,5.82,1605978592
74,los cedrales,PY,-25.65,-54.7,88.68,23,40,5.82,1605979132
75,port elizabeth,ZA,-33.92,25.57,73.4,49,0,17.22,1605978564
76,yellowknife,CA,62.46,-114.35,-11.29,75,20,10.29,1605978468
77,olafsvik,IS,64.89,-23.71,36.68,81,100,15.35,1605978682
78,bataipora,BR,-22.3,-53.27,88.39,33,0,2.53,1605979134
79,north bend,US,43.41,-124.22,37.54,100,1,8.19,1605979134
80,albany,US,42.6,-73.97,49.33,46,100,4.0,1605978567
81,barrow,US,71.29,-156.79,10.4,85,1,9.17,1605978607
82,wilmington,US,34.23,-77.94,71.31,49,1,2.8,1605978791
83,biak,ID,-0.91,122.88,77.83,78,85,2.62,1605978688
84,honningsvag,NO,70.98,25.97,33.35,88,100,29.24,1605979134
85,hermanus,ZA,-34.42,19.23,64.0,83,83,4.0,1605978561
86,cape town,ZA,-33.93,18.42,67.08,64,20,10.29,1605978424
87,port alfred,ZA,-33.59,26.89,78.08,54,69,7.54,1605978561
88,atuona,PF,-9.8,-139.03,77.0,74,15,14.81,1605978562
89,ushuaia,AR,-54.8,-68.3,66.2,29,75,9.17,1605978563
90,port alfred,ZA,-33.59,26.89,78.08,54,69,7.54,1605978561
91,farsund,NO,58.09,6.8,47.52,86,44,25.88,1605979135
92,punta arenas,CL,-53.15,-70.92,60.8,48,0,16.11,1605978563
93,atuona,PF,-9.8,-139.03,77.0,74,15,14.81,1605978562
94,la ronge,CA,55.1,-105.28,5.0,84,25,2.24,1605978599
95,omsukchan,RU,62.53,155.8,-5.89,88,100,4.56,1605979136
96,upernavik,GL,72.79,-56.15,21.02,91,100,4.07,1605978626
97,barrow,US,71.29,-156.79,10.4,85,1,9.17,1605978607
98,hobart,AU,-42.88,147.33,57.24,72,90,6.93,1605978566
99,progreso,MX,21.28,-89.67,82.72,69,75,11.41,1605979136
100,dikson,RU,73.51,80.55,17.69,96,93,18.12,1605978569
101,saldanha,ZA,-33.01,17.94,68.0,64,77,16.11,1605978616
102,esperance,AU,-33.87,121.9,51.8,100,40,3.36,1605978578
103,dubti,ET,11.74,41.09,80.29,30,12,8.81,1605979137
104,avarua,CK,-21.21,-159.78,71.6,100,100,3.36,1605978589
105,punta arenas,CL,-53.15,-70.92,60.8,48,0,16.11,1605978563
106,ushuaia,AR,-54.8,-68.3,66.2,29,75,9.17,1605978563
107,nikolskoye,RU,59.7,30.79,33.24,86,75,11.18,1605978600
108,walvis bay,NA,-22.96,14.51,67.1,60,0,12.75,1605979138
109,arraial do cabo,BR,-22.97,-42.03,77.77,61,40,8.05,1605979051
110,qaanaaq,GL,77.48,-69.36,6.76,91,93,1.1,1605978589
111,alyangula,AU,-13.85,136.42,77.0,88,7,7.4,1605979129
112,pleasanton,US,37.66,-121.87,50.83,61,1,4.21,1605979138
113,port alfred,ZA,-33.59,26.89,78.08,54,69,7.54,1605978561
114,ushuaia,AR,-54.8,-68.3,66.2,29,75,9.17,1605978563
115,aykhal,RU,66.0,111.5,6.8,84,90,6.71,1605978665
116,sainte-maxime,FR,43.3,6.63,49.14,70,75,2.24,1605979139
117,cape town,ZA,-33.93,18.42,67.08,64,20,10.29,1605978424
118,arraial do cabo,BR,-22.97,-42.03,77.77,61,40,8.05,1605979051
119,port hardy,CA,50.7,-127.42,43.5,87,75,10.29,1605978637
120,saldanha,ZA,-33.01,17.94,68.0,64,77,16.11,1605978616
121,nome,US,64.5,-165.41,28.85,58,1,16.11,1605978632
122,eureka,US,40.8,-124.16,34.68,48,1,4.7,1605978645
123,erdenet,MN,49.03,104.08,7.09,84,0,4.0,1605979140
124,mataura,NZ,-46.19,168.86,48.0,79,99,8.99,1605978570
125,hilo,US,19.73,-155.09,70.54,88,90,8.25,1605978563
126,kedrovyy,RU,56.17,91.82,26.6,73,75,11.18,1605979143
127,upernavik,GL,72.79,-56.15,21.02,91,100,4.07,1605978626
128,bangui,CF,4.36,18.55,89.6,62,20,2.24,1605979145
129,areosa,PT,41.72,-8.86,60.96,63,0,3.36,1605979145
130,ushuaia,AR,-54.8,-68.3,66.2,29,75,9.17,1605978563
131,albany,US,42.6,-73.97,49.33,46,100,4.0,1605978567
132,kaitangata,NZ,-46.28,169.85,46.99,87,99,11.01,1605978564
133,hilo,US,19.73,-155.09,70.54,88,90,8.25,1605978563
134,amarante do maranhao,BR,-5.57,-46.74,89.8,55,46,1.72,1605979145
135,rikitea,PF,-23.12,-134.97,72.97,63,3,3.76,1605978568
136,behat,IN,30.17,77.62,54.21,41,0,2.48,1605979146
137,padang,ID,-0.95,100.35,76.87,82,100,7.38,1605978686
138,ilulissat,GL,69.22,-51.1,24.8,68,40,21.92,1605978620
139,provideniya,RU,64.38,-173.3,29.48,96,100,29.86,1605978565
140,roald,NO,62.58,6.13,44.78,70,75,38.03,1605979148
141,butaritari,KI,3.07,172.79,81.45,77,92,15.84,1605978572
142,airai,TL,-8.93,125.41,61.2,99,18,1.74,1605978660
143,khasan,RU,42.43,130.64,36.03,76,100,14.74,1605979149
144,shahrud,IR,36.42,54.98,43.93,82,100,2.91,1605979149
145,hermanus,ZA,-34.42,19.23,64.0,83,83,4.0,1605978561
146,carnarvon,AU,-24.87,113.63,69.8,88,1,23.04,1605978592
147,severo-kurilsk,RU,50.68,156.12,30.76,92,90,14.07,1605978590
148,castro,BR,-24.79,-50.01,74.05,47,37,6.42,1605978544
149,osoyoos,CA,49.03,-119.45,39.2,72,71,3.36,1605979150
150,algiers,DZ,36.75,3.04,59.13,63,43,14.07,1605979150
151,ushuaia,AR,-54.8,-68.3,66.2,29,75,9.17,1605978563
152,punta arenas,CL,-53.15,-70.92,60.8,48,0,16.11,1605978563
153,westport,US,41.14,-73.36,59.34,47,1,8.05,1605978926
154,rikitea,PF,-23.12,-134.97,72.97,63,3,3.76,1605978568
155,xingyi,CN,24.19,102.82,50.23,85,0,3.22,1605979151
156,punta arenas,CL,-53.15,-70.92,60.8,48,0,16.11,1605978563
157,thompson,CA,55.74,-97.86,10.4,85,90,5.82,1605978592
158,kaitangata,NZ,-46.28,169.85,46.99,87,99,11.01,1605978564
159,taoudenni,ML,22.68,-3.98,80.28,19,100,7.56,1605978587
160,sychevka,RU,55.83,34.27,29.32,98,22,4.9,1605979153
161,jamestown,US,42.1,-79.24,39.36,74,90,10.29,1605978823
162,yulara,AU,-25.24,130.99,86.0,30,100,4.7,1605978645
163,ukiah,US,39.15,-123.21,44.19,86,1,1.66,1605979153
164,saint-georges,GD,12.06,-61.75,84.2,79,75,17.22,1605979154
165,cape town,ZA,-33.93,18.42,67.08,64,20,10.29,1605978424
166,terrace bay,CA,48.78,-87.1,22.64,67,90,2.24,1605979155
167,cabedelo,BR,-6.98,-34.83,87.8,58,75,11.41,1605978663
168,khatanga,RU,71.97,102.5,20.26,97,100,12.48,1605978572
169,cullinan,ZA,-25.67,28.52,64.4,88,98,2.24,1605979155
170,luanda,AO,-8.84,13.23,82.4,69,40,12.8,1605979156
171,new norfolk,AU,-42.78,147.06,56.89,66,100,1.63,1605978594
172,port alfred,ZA,-33.59,26.89,78.08,54,69,7.54,1605978561
173,cape town,ZA,-33.93,18.42,67.08,64,20,10.29,1605978424
174,yellowknife,CA,62.46,-114.35,-11.29,75,20,10.29,1605978468
175,bambous virieux,MU,-20.34,57.76,74.17,83,40,3.36,1605978615
176,avarua,CK,-21.21,-159.78,71.6,100,100,3.36,1605978589
177,yellowknife,CA,62.46,-114.35,-11.29,75,20,10.29,1605978468
178,hobart,AU,-42.88,147.33,57.24,72,90,6.93,1605978566
179,kiruna,SE,67.86,20.23,26.6,92,100,8.05,1605979159
180,tura,IN,25.52,90.22,65.07,69,28,3.24,1605979089
181,hermanus,ZA,-34.42,19.23,64.0,83,83,4.0,1605978561
182,sur,OM,22.57,59.53,72.77,50,0,5.37,1605979160
183,xian,CN,34.26,108.93,38.32,93,90,8.95,1605979160
184,kattivakkam,IN,13.22,80.32,78.8,83,20,7.11,1605979160
185,tiksi,RU,71.69,128.87,-4.36,90,0,8.88,1605978620
186,barrow,US,71.29,-156.79,10.4,85,1,9.17,1605978607
187,muriwai beach,NZ,-36.82,174.45,60.03,82,88,1.01,1605979161
188,upernavik,GL,72.79,-56.15,21.02,91,100,4.07,1605978626
189,dubbo,AU,-32.25,148.62,69.8,77,100,4.7,1605979161
190,bitung,ID,1.45,125.18,75.2,94,20,1.12,1605978583
191,olafsvik,IS,64.89,-23.71,36.68,81,100,15.35,1605978682
192,lavrentiya,RU,65.58,-171.0,25.54,93,100,15.08,1605978633
193,victoria,HK,22.29,114.16,71.67,86,45,13.06,1605978441
194,hilo,US,19.73,-155.09,70.54,88,90,8.25,1605978563
195,alice springs,AU,-23.7,133.88,78.8,34,4,5.82,1605978487
196,kalmunai,LK,7.42,81.82,78.67,83,100,11.32,1605978676
197,domoni,KM,-12.26,44.53,79.34,75,7,4.0,1605978600
198,san miguel,SV,13.48,-88.18,82.85,78,0,2.24,1605979163
199,mataura,NZ,-46.19,168.86,48.0,79,99,8.99,1605978570
200,kuching,MY,1.55,110.33,77.0,94,20,2.84,1605979165
201,kaitangata,NZ,-46.28,169.85,46.99,87,99,13.0,1605979165
202,dikson,RU,73.51,80.55,17.69,96,93,18.12,1605978569
203,mataura,NZ,-46.19,168.86,48.0,79,99,8.99,1605978570
204,airai,TL,-8.93,125.41,61.2,99,18,1.74,1605978660
205,darab,IR,28.75,54.54,62.98,42,0,3.42,1605979165
206,kapaa,US,22.08,-159.32,76.24,88,90,20.8,1605978574
207,luganville,VU,-15.53,167.17,76.93,88,100,9.71,1605979166
208,tiksi,RU,71.69,128.87,-4.36,90,0,8.88,1605978620
209,avera,US,33.19,-82.53,69.82,49,1,5.82,1605978599
210,rikitea,PF,-23.12,-134.97,72.97,63,3,3.76,1605978568
211,mar del plata,AR,-38.0,-57.56,71.6,68,75,16.11,1605978462
212,constitucion,CL,-35.33,-72.42,62.33,57,21,11.12,1605979166
213,belomorsk,RU,64.52,34.77,29.03,93,100,10.94,1605979166
214,luderitz,NA,-26.65,15.16,69.8,64,6,20.8,1605978598
215,malanje,AO,-9.54,16.34,69.4,91,100,1.57,1605979167
216,conde,BR,-7.26,-34.91,87.8,58,75,11.41,1605978688
217,grindavik,IS,63.84,-22.43,35.6,93,75,9.17,1605978625
218,yellowknife,CA,62.46,-114.35,-11.31,83,20,10.29,1605979141
219,geraldton,AU,-28.77,114.6,62.6,77,90,14.99,1605978577
220,talaya,RU,61.38,152.75,-11.85,87,100,1.7,1605979168
221,albany,US,42.6,-73.97,49.51,46,100,4.0,1605978890
222,portland,US,45.52,-122.68,38.32,93,90,4.7,1605978635
223,kapaa,US,22.08,-159.32,76.24,88,90,20.8,1605978574
224,luena,AO,-11.78,19.92,67.66,89,93,0.63,1605979169
225,miraflores,MX,19.22,-98.81,62.53,67,90,8.05,1605978604
226,rikitea,PF,-23.12,-134.97,72.97,63,3,3.76,1605979169
227,cockburn town,TC,21.46,-71.14,75.2,83,75,11.41,1605979037
228,rikitea,PF,-23.12,-134.97,72.97,63,3,3.76,1605979169
229,alice springs,AU,-23.7,133.88,78.8,34,4,5.82,1605978487
230,yenagoa,NG,4.92,6.26,82.06,73,96,6.58,1605979170
231,clyde river,CA,70.47,-68.59,10.4,92,90,12.75,1605978623
232,bluff,NZ,-46.6,168.33,48.0,79,97,8.99,1605978582
233,vaini,TO,-21.2,-175.2,73.4,88,75,4.7,1605978596
234,ponta do sol,PT,32.67,-17.1,68.86,77,20,5.82,1605978619
235,puerto ayora,EC,-0.74,-90.35,75.07,69,75,11.41,1605979050
236,ushuaia,AR,-54.8,-68.3,66.2,29,75,9.17,1605978954
237,rikitea,PF,-23.12,-134.97,72.97,63,3,3.76,1605979169
238,saint george,US,37.1,-113.58,54.52,37,1,2.3,1605978635
239,hobart,AU,-42.88,147.33,57.24,72,90,6.93,1605978902
240,kaitangata,NZ,-46.28,169.85,46.99,87,99,13.0,1605979165
241,omboue,GA,-1.57,9.26,77.43,89,100,7.63,1605979172
242,vaini,TO,-21.2,-175.2,73.4,88,75,4.7,1605978596
243,rikitea,PF,-23.12,-134.97,72.97,63,3,3.76,1605979169
244,kapaa,US,22.08,-159.32,76.24,88,90,20.8,1605978574
245,baykit,RU,61.67,96.37,21.67,95,95,7.18,1605979173
246,hermanus,ZA,-34.42,19.23,64.0,84,83,5.99,1605979120
247,vaini,TO,-21.2,-175.2,73.4,88,75,4.7,1605978596
248,esperance,AU,-33.87,121.9,51.8,100,40,3.36,1605978578
249,hithadhoo,MV,-0.6,73.08,82.65,76,95,9.48,1605978642
250,salalah,OM,17.02,54.09,80.6,57,0,5.82,1605979174
251,kizner,RU,56.27,51.51,19.69,95,66,7.43,1605979174
252,butaritari,KI,3.07,172.79,81.45,77,92,15.84,1605979174
253,los llanos de aridane,ES,28.66,-17.92,74.57,53,0,14.99,1605978607
254,ushuaia,AR,-54.8,-68.3,66.2,29,75,9.17,1605978954
255,avarua,CK,-21.21,-159.78,71.6,100,100,3.36,1605978589
256,hue,VN,16.47,107.6,77.0,88,40,2.24,1605979174
257,hermanus,ZA,-34.42,19.23,64.0,84,83,5.99,1605979120
258,longyearbyen,SJ,78.22,15.64,21.2,73,75,5.82,1605978619
259,north branch,US,45.51,-92.98,30.33,80,0,4.0,1605979175
260,nyagan,RU,62.14,65.39,25.97,94,73,9.78,1605979175
261,te anau,NZ,-45.42,167.72,41.77,87,83,2.06,1605979175
262,ranfurly,NZ,-45.13,170.1,39.99,82,100,3.0,1605979175
263,touba,CI,8.28,-7.68,87.55,36,0,4.23,1605979175
264,clinton,US,42.59,-82.92,42.71,56,75,10.29,1605979130
265,mataura,NZ,-46.19,168.86,48.0,79,99,5.99,1605979176
266,bluff,NZ,-46.6,168.33,48.0,79,97,8.99,1605978582
267,dillon,US,34.42,-79.37,70.27,49,1,3.36,1605979176
268,clyde river,CA,70.47,-68.59,10.4,92,90,12.75,1605978623
269,cuamba,MZ,-14.8,36.54,84.96,40,84,4.36,1605979176
270,kyzyl-suu,KG,42.34,78.01,25.38,78,6,10.31,1605979176
271,abha,SA,18.22,42.51,64.27,77,0,4.7,1605979176
272,puerto narino,CO,-3.77,-70.38,84.2,70,75,4.7,1605979176
273,usinsk,RU,65.99,57.53,27.52,98,99,10.56,1605979156
274,avarua,CK,-21.21,-159.78,71.6,100,100,3.36,1605978589
275,nizwa,OM,22.93,57.53,68.05,34,0,2.06,1605978582
276,mataura,NZ,-46.19,168.86,48.0,79,99,5.99,1605979176
277,bluff,NZ,-46.6,168.33,48.0,79,97,8.99,1605978582
278,arraial do cabo,BR,-22.97,-42.03,77.77,61,40,8.05,1605979051
279,avarua,CK,-21.21,-159.78,71.6,100,100,3.36,1605978589
280,saint-philippe,RE,-21.36,55.77,75.2,64,0,3.36,1605978594
281,atuona,PF,-9.8,-139.03,77.0,74,15,14.81,1605979166
282,thompson,CA,55.74,-97.86,10.4,85,90,5.82,1605978592
283,montrose,US,38.42,-108.27,48.67,49,99,2.95,1605978626
284,evensk,RU,61.95,159.23,7.3,92,100,7.05,1605978666
285,klaksvik,FO,62.23,-6.59,42.8,81,100,38.03,1605978593
286,anadyr,RU,64.75,177.48,32.0,97,40,24.61,1605978686
287,buala,SB,-8.14,159.59,80.26,79,81,5.37,1605978587
288,waitara,NZ,-38.92,174.25,48.99,84,45,4.0,1605979179
289,mahebourg,MU,-20.41,57.7,73.4,83,40,3.36,1605978591
290,port alfred,ZA,-33.59,26.89,78.08,54,69,7.54,1605979180
291,vaini,TO,-21.2,-175.2,73.4,88,75,4.7,1605978596
292,xining,CN,36.62,101.77,13.69,90,100,2.57,1605979180
293,puerto ayora,EC,-0.74,-90.35,75.07,69,75,11.41,1605979050
294,souillac,MU,-20.52,57.52,73.4,83,40,3.36,1605978586
295,carnarvon,AU,-24.87,113.63,69.8,88,1,23.04,1605978592
296,beipiao,CN,41.79,120.78,18.86,86,85,10.13,1605979182
297,tommot,RU,58.96,126.29,2.05,90,99,5.19,1605979183
298,bedesa,ET,8.9,40.78,63.77,35,29,5.44,1605979183
299,ndioum,SN,16.51,-14.65,98.6,19,0,2.24,1605979183
300,lebu,CL,-37.62,-73.65,58.28,71,99,12.46,1605979183
301,nouadhibou,MR,20.93,-17.03,84.2,28,100,9.17,1605978605
302,kapaa,US,22.08,-159.32,76.24,88,90,20.8,1605979157
303,port alfred,ZA,-33.59,26.89,78.08,54,69,7.54,1605979180
304,hithadhoo,MV,-0.6,73.08,82.65,76,95,9.48,1605978642
305,college,US,64.86,-147.8,-9.74,68,1,4.45,1605978585
306,avarua,CK,-21.21,-159.78,71.6,100,100,3.36,1605978589
307,dingle,PH,11.0,122.67,76.53,91,66,8.32,1605978641
308,hasaki,JP,35.73,140.83,41.52,93,20,6.76,1605979184
309,kasongo-lunda,CD,-6.47,16.82,74.95,88,79,1.45,1605979184
310,cape town,ZA,-33.93,18.42,66.67,68,40,9.17,1605979185
311,vaini,TO,-21.2,-175.2,73.4,88,75,4.7,1605978596
312,kadaya,RU,50.93,119.29,-8.03,85,0,3.22,1605979185
313,sterling,US,39.01,-77.43,62.83,63,40,5.82,1605978436
314,sur,OM,22.57,59.53,72.77,50,0,5.37,1605979160
315,vaini,TO,-21.2,-175.2,73.4,88,75,4.7,1605978596
316,albany,US,42.6,-73.97,49.51,46,100,4.0,1605978890
317,hilo,US,19.73,-155.09,71.15,88,90,8.25,1605979169
318,albany,US,42.6,-73.97,49.51,46,100,4.0,1605978890
319,thinadhoo,MV,0.53,72.93,82.92,73,78,8.61,1605978640
320,west lafayette,US,40.43,-86.91,47.84,61,40,9.17,1605979186
321,port keats,AU,-14.25,129.55,82.98,78,38,5.55,1605979186
322,dikson,RU,73.51,80.55,17.69,96,93,18.12,1605979186
323,hermanus,ZA,-34.42,19.23,64.0,84,83,5.99,1605979120
324,bluff,NZ,-46.6,168.33,48.0,79,97,5.99,1605979187
325,fort nelson,CA,58.81,-122.7,-16.6,75,20,2.24,1605979187
326,kapaa,US,22.08,-159.32,76.24,88,90,20.8,1605979157
327,katsuura,JP,35.13,140.3,57.2,67,20,9.17,1605978631
328,punta arenas,CL,-53.15,-70.92,60.8,48,0,16.11,1605979155
329,lokosovo,RU,61.13,74.82,21.16,97,79,9.73,1605978689
330,avarua,CK,-21.21,-159.78,71.6,100,100,3.36,1605978589
331,rikitea,PF,-23.12,-134.97,72.97,63,3,3.76,1605979169
332,ponta do sol,PT,32.67,-17.1,68.86,77,20,5.82,1605978619
333,labuhan,ID,-6.88,112.21,81.95,77,88,3.22,1605979179
334,thompson,CA,55.74,-97.86,10.4,85,90,5.82,1605978592
335,muravlenko,RU,63.79,74.52,22.21,96,0,19.3,1605979188
336,bilma,NE,18.69,12.92,70.12,26,0,5.39,1605979171
337,kodiak,US,57.79,-152.41,39.2,60,75,16.11,1605979188
338,albany,US,42.6,-73.97,49.51,46,100,4.0,1605978890
339,san patricio,US,28.02,-97.52,78.64,69,75,11.41,1605978592
340,ilulissat,GL,69.22,-51.1,24.8,68,40,21.92,1605978620
341,atar,MR,20.52,-13.05,85.1,15,100,11.54,1605978669
342,rensvik,NO,63.1,7.82,44.6,70,99,40.26,1605979190
343,barrow,US,71.29,-156.79,10.4,85,1,9.17,1605978607
344,jamestown,US,42.1,-79.24,39.36,74,90,10.29,1605978823
345,kedrovyy,RU,56.17,91.82,26.6,73,75,11.18,1605979143
346,provideniya,RU,64.38,-173.3,29.48,96,100,29.86,1605979190
347,kapaa,US,22.08,-159.32,76.24,88,90,20.8,1605979157
348,dikson,RU,73.51,80.55,17.69,96,93,18.12,1605979186
349,victoria,HK,22.29,114.16,71.67,87,45,1.01,1605979099
350,andapa,MG,-14.65,49.65,69.62,86,16,1.39,1605979191
351,araouane,ML,18.9,-3.53,83.12,15,88,5.08,1605978665
352,norman wells,CA,65.28,-126.83,-18.4,75,20,2.24,1605978628
353,haines junction,CA,60.75,-137.51,-7.6,83,100,1.12,1605978595
354,tecoanapa,MX,16.52,-98.75,87.08,55,21,7.25,1605979191
355,lagoa,PT,39.05,-27.98,63.01,85,100,12.88,1605978593
356,carnarvon,AU,-24.87,113.63,69.8,88,1,23.04,1605978592
357,bluff,NZ,-46.6,168.33,48.0,79,97,5.99,1605979187
358,itabira,BR,-19.62,-43.23,77.0,61,75,4.7,1605979192
359,ushuaia,AR,-54.8,-68.3,66.2,29,75,9.17,1605978954
360,puerto ayora,EC,-0.74,-90.35,75.07,69,75,11.41,1605979050
361,vaini,TO,-21.2,-175.2,73.4,88,75,4.7,1605978596
362,palmer,US,42.16,-72.33,55.87,44,75,10.29,1605978636
363,cape town,ZA,-33.93,18.42,66.67,68,40,9.17,1605979185
364,varangaon,IN,21.02,75.9,72.34,43,94,7.87,1605979193
365,hermanus,ZA,-34.42,19.23,64.0,84,83,5.99,1605979120
366,tiruchchendur,IN,8.48,78.12,81.01,77,24,15.97,1605979193
367,bluff,NZ,-46.6,168.33,48.0,79,97,5.99,1605979187
368,hobart,AU,-42.88,147.33,57.24,72,90,6.93,1605978902
369,davidson,US,36.15,-86.78,66.18,63,1,4.47,1605978943
370,mataura,NZ,-46.19,168.86,48.0,79,99,5.99,1605979176
371,tecoanapa,MX,16.52,-98.75,87.08,55,21,7.25,1605979191
372,alice springs,AU,-23.7,133.88,78.8,34,4,5.82,1605979194
373,general roca,AR,-39.03,-67.58,75.2,31,20,11.41,1605979194
374,avarua,CK,-21.21,-159.78,71.6,100,100,3.36,1605979162
375,sa kaeo,TH,13.75,102.33,75.54,91,83,1.12,1605979194
376,rupert,US,42.62,-113.68,26.6,86,90,1.54,1605979195
377,saldanha,ZA,-33.01,17.94,68.0,64,77,16.11,1605978616
378,loiza,PR,18.43,-65.88,79.9,78,75,3.36,1605979195
379,zhangye,CN,38.93,100.45,16.81,81,32,1.45,1605979195
380,padang,ID,-0.95,100.35,76.87,82,100,7.38,1605978686
381,albany,US,42.6,-73.97,49.51,46,100,4.0,1605978890
382,puerto ayora,EC,-0.74,-90.35,75.07,69,75,11.41,1605979050
383,atuona,PF,-9.8,-139.03,77.0,74,15,14.81,1605979166
384,avarua,CK,-21.21,-159.78,71.6,100,100,3.36,1605979162
385,san carlos de bariloche,AR,-41.15,-71.31,51.8,71,75,20.8,1605979008
386,hilo,US,19.73,-155.09,71.15,88,90,8.25,1605979169
387,pevek,RU,69.7,170.31,10.53,96,100,4.85,1605978613
388,severo-kurilsk,RU,50.68,156.12,30.76,92,90,14.07,1605979196
389,margate,GB,51.38,1.39,53.01,72,96,1.99,1605979196
390,port elizabeth,ZA,-33.92,25.57,73.4,49,0,17.22,1605979000
391,qingdao,CN,36.1,120.37,41.0,86,90,8.95,1605978955
392,new norfolk,AU,-42.78,147.06,56.52,65,100,1.63,1605979196
393,hilo,US,19.73,-155.09,71.15,88,90,8.25,1605979169
394,kununurra,AU,-15.77,128.73,82.4,94,94,13.15,1605978662
395,rikitea,PF,-23.12,-134.97,72.97,63,3,3.76,1605979169
396,olkhovka,RU,53.21,60.61,18.27,82,0,5.23,1605979198
397,bluff,NZ,-46.6,168.33,48.0,79,97,5.99,1605979187
398,nikolskoye,RU,59.7,30.79,33.24,86,75,11.18,1605978600
399,narsaq,GL,60.92,-46.05,15.8,61,20,6.93,1605979199
400,mataura,NZ,-46.19,168.86,48.0,79,99,5.99,1605979176
401,yellowknife,CA,62.46,-114.35,-11.31,83,20,10.29,1605979141
402,kropotkin,RU,45.44,40.58,39.49,88,82,6.08,1605979200
403,kapaa,US,22.08,-159.32,76.24,88,90,20.8,1605979157
404,senneterre,CA,48.38,-77.23,21.2,92,90,9.17,1605979201
405,mataura,NZ,-46.19,168.86,48.0,79,99,5.99,1605979176
406,port lincoln,AU,-34.73,135.87,66.29,68,49,9.69,1605979201
407,atherton,GB,53.52,-2.49,49.86,84,100,1.99,1605979201
408,tasiilaq,GL,65.61,-37.64,28.4,63,20,12.75,1605979201
409,saint george,US,37.1,-113.58,54.52,37,1,2.3,1605978635
410,znamenka,RU,52.42,41.43,22.44,90,98,6.02,1605979202
411,vaini,TO,-21.2,-175.2,73.4,88,75,4.7,1605979167
412,ushuaia,AR,-54.8,-68.3,66.2,29,75,9.17,1605978954
413,hobart,AU,-42.88,147.33,57.24,72,90,6.93,1605978902
414,sitka,US,57.05,-135.33,42.8,70,90,25.28,1605978604
415,ambulu,ID,-8.35,113.61,79.02,85,100,3.65,1605979202
416,verkhoyansk,RU,67.54,133.38,-15.21,87,94,2.82,1605978622
417,rikitea,PF,-23.12,-134.97,72.97,63,3,3.76,1605979169
418,albany,US,42.6,-73.97,49.51,46,100,4.0,1605978890
419,mahebourg,MU,-20.41,57.7,71.6,88,40,5.82,1605978974
420,kapaa,US,22.08,-159.32,76.24,88,90,20.8,1605979157
421,souillac,MU,-20.52,57.52,71.6,88,40,5.82,1605979204
422,severo-yeniseyskiy,RU,60.37,93.04,22.3,97,98,13.89,1605979205
423,laguna de perlas,NI,12.34,-83.67,77.0,100,40,7.2,1605979205
424,mataura,NZ,-46.19,168.86,48.0,79,99,5.99,1605979176
425,grand gaube,MU,-20.01,57.66,75.0,70,36,1.99,1605978611
426,thompson,CA,55.74,-97.86,10.4,85,75,5.82,1605979205
427,kahului,US,20.89,-156.47,71.49,88,75,14.99,1605979095
428,rio grande,BR,-32.03,-52.1,72.66,46,40,13.87,1605979205
429,san cristobal,VE,7.77,-72.22,87.8,52,40,4.7,1605979101
430,coahuayana,MX,18.73,-103.68,78.8,57,5,11.41,1605978608
431,chokurdakh,RU,70.63,147.92,-1.44,93,100,3.8,1605978610
432,pinawa,CA,50.15,-95.88,24.87,87,0,8.01,1605979207
433,corumba,BR,-19.01,-57.65,95.0,28,20,6.93,1605979207
434,half moon bay,US,37.46,-122.43,52.59,30,1,4.7,1605978626
435,carnarvon,AU,-24.87,113.63,69.8,88,1,23.04,1605979184
436,ushuaia,AR,-54.8,-68.3,66.2,29,75,9.17,1605978954
437,rikitea,PF,-23.12,-134.97,72.97,63,3,3.76,1605979169
438,punta arenas,CL,-53.15,-70.92,60.8,48,0,16.11,1605979155
439,busselton,AU,-33.65,115.33,53.89,72,23,9.84,1605979208
440,airai,TL,-8.93,125.41,61.2,99,18,1.74,1605978660
441,kruisfontein,ZA,-34.0,24.73,75.99,34,26,7.0,1605979046
442,altamont,US,42.21,-121.74,29.41,80,1,3.36,1605979209
443,ushuaia,AR,-54.8,-68.3,66.2,29,75,9.17,1605978954
444,otjimbingwe,NA,-22.35,16.13,80.37,25,0,21.36,1605979209
445,akdepe,TM,42.06,59.38,18.5,53,0,9.17,1605979209
446,luderitz,NA,-26.65,15.16,69.8,64,6,20.8,1605979209
447,mahebourg,MU,-20.41,57.7,71.6,88,40,5.82,1605978974
448,jacqueville,CI,5.21,-4.41,84.2,79,75,12.75,1605979209
449,new norfolk,AU,-42.78,147.06,56.52,65,100,1.63,1605979196
450,port lincoln,AU,-34.73,135.87,66.29,68,49,9.69,1605979201
451,hermanus,ZA,-34.42,19.23,64.0,84,83,5.99,1605979120
452,nikolskoye,RU,59.7,30.79,33.24,86,75,11.18,1605978998
453,kifri,IQ,34.7,44.97,61.97,76,100,17.85,1605978636
454,ushuaia,AR,-54.8,-68.3,66.2,29,75,9.17,1605978954
455,sola,VU,-13.88,167.55,78.01,80,95,1.61,1605979210
456,parakou,BJ,9.34,2.63,87.48,29,2,2.93,1605979210
457,mananara,MG,-16.17,49.77,74.61,86,7,4.16,1605979210
458,bonfim,BR,3.08,-59.95,90.5,52,24,4.36,1605979211
459,punta arenas,CL,-53.15,-70.92,60.8,48,0,16.11,1605979155
460,tura,IN,25.52,90.22,65.07,69,28,3.24,1605979089
461,avarua,CK,-21.21,-159.78,71.6,100,100,3.36,1605979162
462,kapaa,US,22.08,-159.32,76.24,88,90,20.8,1605979157
463,lorengau,PG,-2.02,147.27,79.29,84,100,5.17,1605978648
464,chegdomyn,RU,51.12,133.02,7.84,92,100,6.53,1605979212
465,bambous virieux,MU,-20.34,57.76,74.17,83,40,3.36,1605978615
466,nipawin,CA,53.37,-104.0,8.6,84,1,2.24,1605979212
467,chuy,UY,-33.7,-53.46,69.22,50,63,9.37,1605979212
468,busselton,AU,-33.65,115.33,53.89,72,23,9.84,1605979208
469,north bend,US,43.41,-124.22,37.54,100,1,8.19,1605979134
470,kieta,PG,-6.22,155.63,78.21,78,99,1.99,1605978669
471,lavrentiya,RU,65.58,-171.0,25.54,93,100,15.08,1605978633
472,new norfolk,AU,-42.78,147.06,56.52,65,100,1.63,1605979196
473,klaksvik,FO,62.23,-6.59,42.8,81,100,38.03,1605979213
474,ushuaia,AR,-54.8,-68.3,66.2,29,75,9.17,1605978954
475,sribne,UA,50.66,32.92,32.04,97,100,8.28,1605979213
476,suntar,RU,62.14,117.63,12.0,95,87,7.16,1605979214
477,rio grande,BR,-32.03,-52.1,72.66,46,40,13.87,1605979205
478,arawa,PG,-6.21,155.54,76.75,80,100,0.54,1605979214
479,rikitea,PF,-23.12,-134.97,72.97,63,3,3.76,1605979169
480,hobyo,SO,5.35,48.53,79.47,79,48,12.62,1605978644
481,yellowknife,CA,62.46,-114.35,-11.31,83,20,10.29,1605979141
482,rikitea,PF,-23.12,-134.97,72.97,63,3,3.76,1605979169
483,kapaa,US,22.08,-159.32,76.24,88,90,20.8,1605979157
484,punta arenas,CL,-53.15,-70.92,60.8,48,0,16.11,1605979155
485,luau,AO,-10.71,22.22,70.25,87,100,1.9,1605979215
486,cody,US,44.53,-109.06,34.09,19,1,6.93,1605979215
487,ponta do sol,PT,32.67,-17.1,68.86,77,20,5.82,1605978619
488,stephenville,US,32.22,-98.2,70.09,73,90,6.93,1605979215
489,mataura,NZ,-46.19,168.86,48.0,79,99,5.99,1605979176
490,lagoa,PT,39.05,-27.98,63.01,85,100,12.88,1605979215
491,ribeira grande,PT,38.52,-28.7,66.2,72,20,6.93,1605979167
492,oxapampa,PE,-10.58,-75.4,70.12,73,98,4.36,1605979216
493,chuy,UY,-33.7,-53.46,69.22,50,63,9.37,1605979212
494,santiago del estero,AR,-27.8,-64.26,97.0,27,0,11.01,1605979202
495,port alfred,ZA,-33.59,26.89,78.08,54,69,7.54,1605979180
496,tutrakan,BG,44.05,26.62,41.68,75,95,5.44,1605979217
497,zhaoyuan,CN,37.36,120.4,44.01,73,100,14.76,1605979217
498,kaitangata,NZ,-46.28,169.85,46.99,87,99,13.0,1605979165
499,caravelas,BR,-17.71,-39.25,75.24,82,100,10.25,1605978650
500,muisne,EC,0.6,-80.03,78.8,78,90,6.93,1605979218
501,severo-kurilsk,RU,50.68,156.12,30.76,92,90,14.07,1605979196
502,krasne,UA,49.91,24.61,30.09,92,90,6.71,1605979218
503,pochutla,MX,15.74,-96.47,90.36,55,20,5.3,1605979218
504,tiarei,PF,-17.53,-149.33,78.8,74,20,1.12,1605979218
505,ushuaia,AR,-54.8,-68.3,66.2,29,75,9.17,1605978954
506,juquitiba,BR,-23.93,-47.07,72.39,53,75,12.75,1605979219
507,port lincoln,AU,-34.73,135.87,66.29,68,49,9.69,1605979201
508,floro,NO,61.6,5.03,46.4,75,75,35.57,1605979219
509,tarakan,ID,3.3,117.63,82.02,77,95,5.37,1605979219
510,broken hill,AU,-31.95,141.43,80.6,32,97,1.12,1605979172
511,yellowknife,CA,62.46,-114.35,-11.31,83,20,10.29,1605979141
512,hurricane,US,37.18,-113.29,55.36,33,0,1.01,1605979031
513,narasannapeta,IN,18.42,84.05,76.6,74,0,1.19,1605979219
514,saldanha,ZA,-33.01,17.94,64.4,72,77,14.99,1605979219
515,lompoc,US,34.64,-120.46,46.76,75,1,5.82,1605978590
516,nikolskoye,RU,59.7,30.79,33.24,86,75,11.18,1605978998
517,komsomolskiy,UZ,40.43,71.72,24.8,79,0,2.24,1605979220
518,sembe,CG,1.65,14.58,76.39,84,100,2.04,1605979220
519,castro,BR,-24.79,-50.01,74.05,47,37,6.42,1605979220
520,puerto ayora,EC,-0.74,-90.35,75.07,69,75,11.41,1605979050
521,puerto ayora,EC,-0.74,-90.35,75.07,69,75,11.41,1605979050
522,hay river,CA,60.82,-115.8,-0.4,84,62,10.29,1605979220
523,chapais,CA,49.78,-74.85,23.0,85,90,10.29,1605978632
524,longyearbyen,SJ,78.22,15.64,21.2,73,75,5.82,1605979221
525,kruisfontein,ZA,-34.0,24.73,75.99,34,26,7.0,1605979046
526,serebryanyy bor,RU,56.8,124.8,-6.77,90,100,0.11,1605979222
527,mataura,NZ,-46.19,168.86,48.0,79,99,5.99,1605979176
528,albany,US,42.6,-73.97,49.51,46,100,4.0,1605978890
529,merauke,ID,-8.47,140.33,80.35,83,93,13.49,1605979222
530,tuktoyaktuk,CA,69.45,-133.04,15.8,92,90,13.87,1605979223
531,albany,US,42.6,-73.97,49.51,46,100,4.0,1605978890
532,thompson,CA,55.74,-97.86,10.4,85,75,5.82,1605979205
533,zhigansk,RU,66.77,123.37,-4.79,91,100,19.69,1605979223
534,danville,US,36.59,-79.39,67.51,48,1,4.32,1605978925
535,kaseda,JP,31.42,130.32,60.55,79,2,7.92,1605979224
536,east london,ZA,-33.02,27.91,82.4,51,0,6.93,1605979224
537,punta arenas,CL,-53.15,-70.92,60.8,48,0,16.11,1605979155
538,ushuaia,AR,-54.8,-68.3,66.2,29,75,9.17,1605978954
539,port alfred,ZA,-33.59,26.89,78.08,54,69,7.54,1605979180
540,kavieng,PG,-2.57,150.8,81.97,74,89,10.27,1605979224
541,yarada,IN,17.65,83.27,80.6,83,40,2.24,1605979224
542,busselton,AU,-33.65,115.33,53.89,72,23,9.84,1605979208
543,kawambwa,ZM,-9.79,29.08,67.91,84,58,2.84,1605979038
544,patti,IN,31.28,74.86,54.45,81,20,5.03,1605979225
545,murud,IN,18.33,72.97,77.07,71,75,3.94,1605979225
546,khatanga,RU,71.97,102.5,20.26,97,100,12.48,1605979168
547,nueva gorgona,PA,8.55,-79.87,78.01,88,90,11.39,1605979225
548,ada,US,43.42,-116.13,33.39,69,1,3.36,1605979225
549,vaini,TO,-21.2,-175.2,73.4,88,75,4.7,1605979167
550,albany,US,42.6,-73.97,49.51,46,100,4.0,1605978890
551,tateyama,JP,34.98,139.87,57.2,67,20,9.17,1605979227
552,mahebourg,MU,-20.41,57.7,71.6,88,40,5.82,1605978974
553,san patricio,US,28.02,-97.52,79.52,61,40,11.41,1605979227
554,kampot,KH,10.62,104.18,77.76,83,20,3.36,1605978963
555,lowestoft,GB,52.48,1.75,50.68,84,89,1.01,1605979227
556,coquimbo,CL,-29.95,-71.34,66.2,55,0,17.22,1605979205
557,puerto leguizamo,CO,-0.19,-74.78,85.24,68,90,3.74,1605979227
558,muros,ES,42.78,-9.06,59.0,77,0,1.83,1605979228
559,erenhot,CN,43.65,111.98,10.49,89,16,8.41,1605979228
560,beringovskiy,RU,63.05,179.32,32.18,98,100,19.13,1605979213
561,kapaa,US,22.08,-159.32,76.24,88,90,20.8,1605979157
562,hilo,US,19.73,-155.09,71.15,88,90,8.25,1605979169
563,houston,US,29.76,-95.36,73.85,61,40,6.93,1605978993
564,tazovskiy,RU,67.47,78.7,24.01,97,94,16.42,1605978675
565,new norfolk,AU,-42.78,147.06,56.52,65,100,1.63,1605979196
566,saint-philippe,RE,-21.36,55.77,74.16,64,0,3.36,1605979230
567,lorengau,PG,-2.02,147.27,79.29,84,100,5.17,1605978648
568,rikitea,PF,-23.12,-134.97,72.97,63,3,3.76,1605979169
569,thunder bay,CA,48.4,-89.32,23.61,67,90,6.67,1605978947
570,zanjan,IR,36.67,48.48,45.34,80,100,5.86,1605979230
571,kharitonovo,RU,61.4,47.5,27.79,97,30,6.8,1605979230
572,jalu,LY,29.03,21.55,64.56,56,37,5.59,1605979230
573,nelson bay,AU,-32.72,152.15,65.17,88,90,2.24,1605979230
574,atuona,PF,-9.8,-139.03,77.0,74,15,14.81,1605979166
575,makakilo city,US,21.35,-158.09,74.82,78,75,8.05,1605978664
576,longonjo,AO,-12.91,15.25,71.11,70,99,1.92,1605979207
577,albany,US,42.6,-73.97,49.51,46,100,4.0,1605978890
578,quebec,CA,46.81,-71.21,35.19,55,13,12.75,1605979103
579,aksarka,RU,66.56,67.8,26.08,95,67,16.2,1605979231
580,esso,RU,55.93,158.7,5.13,87,85,4.23,1605979232
581,punta arenas,CL,-53.15,-70.92,60.8,48,0,16.11,1605979155
582,bengkulu,ID,-3.8,102.27,77.11,90,100,7.47,1605978646
583,lebu,CL,-37.62,-73.65,58.28,71,99,12.46,1605979183
584,saint-philippe,RE,-21.36,55.77,74.16,64,0,3.36,1605979230
585,airai,TL,-8.93,125.41,61.2,99,18,1.74,1605978660
586,honiara,SB,-9.43,159.95,75.2,100,40,3.36,1605979232
587,port lincoln,AU,-34.73,135.87,66.29,68,49,9.69,1605979201
588,moses lake,US,47.13,-119.28,28.71,86,1,4.7,1605979232
589,georgetown,MY,5.41,100.34,77.65,94,40,3.36,1605979233
590,arraial do cabo,BR,-22.97,-42.03,77.77,61,40,8.05,1605979051
591,albany,US,42.6,-73.97,49.51,46,100,4.0,1605978890
592,thompson,CA,55.74,-97.86,10.4,85,75,5.82,1605979205
593,mataura,NZ,-46.19,168.86,48.0,79,99,5.99,1605979176
594,airai,TL,-8.93,125.41,61.2,99,18,1.74,1605978660
595,qaanaaq,GL,77.48,-69.36,6.76,91,93,1.1,1605979235
596,east london,ZA,-33.02,27.91,82.4,51,0,6.93,1605979224
597,biak,ID,-0.91,122.88,77.83,78,85,2.62,1605978688
598,dhidhdhoo,MV,6.88,73.1,83.21,71,33,4.92,1605978640
599,busselton,AU,-33.65,115.33,53.89,72,23,9.84,1605979208
600,tamorong,PH,17.33,120.43,75.56,79,8,5.68,1605979235
601,kavieng,PG,-2.57,150.8,81.97,74,89,10.27,1605979224
602,nouadhibou,MR,20.93,-17.03,82.4,42,100,6.93,1605979235
603,puerto ayora,EC,-0.74,-90.35,75.07,69,75,11.41,1605979050
604,pombas,CV,17.15,-25.02,82.4,58,20,14.99,1605979237
605,foumban,CM,5.73,10.9,73.06,49,40,2.26,1605979237
606,new norfolk,AU,-42.78,147.06,56.52,65,100,1.63,1605979196
607,cabo san lucas,MX,22.89,-109.91,82.29,32,5,5.28,1605978603
608,jamestown,US,42.1,-79.24,39.36,74,90,10.29,1605978823
609,ancud,CL,-41.87,-73.82,49.21,82,75,19.46,1605978656
610,vila franca do campo,PT,37.72,-25.43,66.2,72,20,10.29,1605979240
611,tasiilaq,GL,65.61,-37.64,28.4,63,20,12.75,1605979201
612,norman wells,CA,65.28,-126.83,-20.2,75,20,2.24,1605979240
613,alofi,NU,-19.06,-169.92,75.2,100,100,6.93,1605979240
614,nikolskoye,RU,59.7,30.79,33.24,86,75,11.18,1605978998
615,jamestown,US,42.1,-79.24,39.36,74,90,10.29,1605978823
616,ushuaia,AR,-54.8,-68.3,66.2,29,75,9.17,1605978954
617,ponta delgada,PT,37.73,-25.67,66.2,72,20,10.29,1605979241
618,bilibino,RU,68.05,166.44,1.78,90,100,0.83,1605978687
619,atuona,PF,-9.8,-139.03,77.0,74,15,14.81,1605979166
620,iqaluit,CA,63.75,-68.51,8.6,71,20,8.05,1605979243
621,vysokogornyy,RU,50.12,139.15,11.5,94,66,13.94,1605979244
622,gao,ML,16.64,1.64,80.71,15,0,6.73,1605979244
623,roma,US,43.21,-75.46,45.12,52,75,12.75,1605978961
624,abu samrah,SY,35.3,37.18,56.8,74,16,2.55,1605979244
625,saint-philippe,RE,-21.36,55.77,74.16,64,0,3.36,1605979230
626,ushuaia,AR,-54.8,-68.3,66.2,29,75,9.17,1605978954
627,ushuaia,AR,-54.8,-68.3,66.2,29,75,9.17,1605978954
628,broken hill,AU,-31.95,141.43,80.6,32,97,1.12,1605979172
629,ostrovnoy,RU,68.05,39.51,29.23,95,55,17.0,1605978655
630,port elizabeth,ZA,-33.92,25.57,73.4,49,0,17.22,1605979000
631,punta arenas,CL,-53.15,-70.92,60.8,48,0,16.11,1605979155
632,hobart,AU,-42.88,147.33,57.24,72,90,6.93,1605978902
633,punta arenas,CL,-53.15,-70.92,60.8,48,0,16.11,1605979155
634,pinheiro,BR,-2.52,-45.08,84.49,75,73,3.83,1605979245
635,upernavik,GL,72.79,-56.15,21.02,91,100,4.07,1605979160
636,ribeira grande,PT,38.52,-28.7,66.2,72,20,6.93,1605979167
637,mar del plata,AR,-38.0,-57.56,71.6,68,75,16.11,1605979159
638,cape town,ZA,-33.93,18.42,66.67,68,40,9.17,1605979185
639,russell,US,32.35,-85.2,69.12,56,75,9.17,1605979246
640,iranshahr,IR,27.2,60.68,68.0,24,0,2.28,1605979246
641,isangel,VU,-19.55,169.27,72.66,79,100,10.6,1605979246
642,salalah,OM,17.02,54.09,80.6,57,0,5.82,1605979174
643,cabo san lucas,MX,22.89,-109.91,82.29,32,5,5.28,1605978603
644,new norfolk,AU,-42.78,147.06,56.52,65,100,1.63,1605979196
645,uhlove,UA,44.82,33.6,43.16,69,93,11.59,1605979247
646,doha,QA,25.29,51.53,78.8,65,0,6.93,1605979247
647,calvia,ES,39.57,2.51,56.55,62,0,9.17,1605979247
648,lompoc,US,34.64,-120.46,46.76,75,1,5.82,1605978590
649,kaduy,RU,59.2,37.15,32.0,96,75,6.71,1605979248
650,mangan,IN,27.52,88.53,55.76,55,98,0.29,1605979248
651,sretensk,RU,52.25,117.71,2.41,88,0,3.27,1605979248
652,baragua,CU,21.7,-78.63,82.27,73,7,16.91,1605979248
653,zhigansk,RU,66.77,123.37,-4.79,91,100,19.69,1605979223
654,araguaina,BR,-7.19,-48.21,89.73,54,49,4.45,1605979068
655,upernavik,GL,72.79,-56.15,21.02,91,100,4.07,1605979160
656,tuktoyaktuk,CA,69.45,-133.04,15.8,92,90,13.87,1605979223
657,pimentel,PE,-6.84,-79.93,75.2,57,0,14.99,1605979249
658,barrow,US,71.29,-156.79,10.4,85,1,12.75,1605979249
659,san quintin,MX,30.48,-115.95,68.14,63,89,6.8,1605979249
660,hermanus,ZA,-34.42,19.23,64.0,84,83,5.99,1605979120
661,luganville,VU,-15.53,167.17,76.93,88,100,9.71,1605979166
662,meulaboh,ID,4.14,96.13,74.03,94,100,4.9,1605979123
663,rundu,NA,-17.93,19.77,76.69,59,95,2.75,1605979251
664,angoche,MZ,-16.23,39.91,79.12,76,2,9.08,1605979251
665,avarua,CK,-21.21,-159.78,71.6,100,100,3.36,1605979162
666,puerto ayora,EC,-0.74,-90.35,75.07,69,75,11.41,1605979050
667,barrow,US,71.29,-156.79,10.4,85,1,12.75,1605979249
668,hobart,AU,-42.88,147.33,57.24,72,90,6.93,1605978902
669,punta arenas,CL,-53.15,-70.92,60.8,48,0,16.11,1605979155
670,ushuaia,AR,-54.8,-68.3,66.2,29,75,9.17,1605978954
671,mehamn,NO,71.04,27.85,30.85,92,100,22.7,1605979187
672,east london,ZA,-33.02,27.91,82.4,51,0,6.93,1605979224
673,mtwara,TZ,-10.27,40.18,80.6,83,40,7.45,1605979253
674,albany,US,42.6,-73.97,49.51,46,100,4.0,1605978890
675,awjilah,LY,29.11,21.29,63.41,56,32,3.27,1605979254
676,cidreira,BR,-30.18,-50.21,68.94,54,22,9.15,1605979254
677,port elizabeth,ZA,-33.92,25.57,73.4,49,0,17.22,1605979000
678,yellowknife,CA,62.46,-114.35,-11.31,83,20,10.29,1605979141
679,morondava,MG,-20.28,44.28,78.15,80,4,14.99,1605979254
680,hobart,AU,-42.88,147.33,57.24,72,90,6.93,1605978902
681,mahebourg,MU,-20.41,57.7,71.6,88,40,5.82,1605978974
682,rikitea,PF,-23.12,-134.97,72.97,63,3,3.76,1605979169
683,kodiak,US,57.79,-152.41,39.2,60,75,16.11,1605979188
684,rawson,AR,-43.3,-65.1,73.85,35,100,9.93,1605979255
685,paamiut,GL,61.99,-49.67,28.09,85,80,9.75,1605979218
686,kodiak,US,57.79,-152.41,39.2,60,75,16.11,1605979188
687,bilopillya,UA,51.15,34.31,29.03,99,100,3.6,1605979255
688,lola,GN,7.8,-8.53,86.32,42,5,2.73,1605979255
689,hermanus,ZA,-34.42,19.23,64.0,84,83,5.99,1605979120
690,mataura,NZ,-46.19,168.86,48.0,79,99,5.99,1605979176
691,hobart,AU,-42.88,147.33,57.24,72,90,6.93,1605978902
692,busselton,AU,-33.65,115.33,53.89,72,23,9.84,1605979208
693,plaeng yao,TH,13.58,101.28,82.0,99,90,4.07,1605979256
694,geraldton,AU,-28.77,114.6,62.6,77,90,14.99,1605979256
695,cherskiy,RU,68.75,161.3,6.03,95,100,3.78,1605979256
696,buala,SB,-8.14,159.59,80.26,79,81,5.37,1605979256
697,srednekolymsk,RU,67.45,153.68,2.46,94,100,5.79,1605979256
698,nanortalik,GL,60.14,-45.24,27.07,90,29,8.79,1605979191
699,qaanaaq,GL,77.48,-69.36,6.76,91,93,1.1,1605979235
700,longyearbyen,SJ,78.22,15.64,21.2,73,75,5.82,1605979221
701,coihaique,CL,-45.58,-72.07,50.88,82,100,5.86,1605979158
702,luderitz,NA,-26.65,15.16,69.8,64,6,20.8,1605979209
703,nanakuli,US,21.39,-158.15,74.59,78,75,8.05,1605979257
704,marsh harbour,BS,26.54,-77.06,77.29,76,18,20.47,1605979257
705,barrow,US,71.29,-156.79,10.4,85,1,12.75,1605979249
706,santa rosa,PH,14.31,121.11,79.84,78,20,3.36,1605979257
707,kodiak,US,57.79,-152.41,39.2,60,75,16.11,1605979188
708,vila franca do campo,PT,37.72,-25.43,66.2,72,20,10.29,1605979240
709,bambous virieux,MU,-20.34,57.76,72.73,88,40,5.82,1605979258
710,nikolskoye,RU,59.7,30.79,33.24,86,75,11.18,1605978998
711,plouzane,FR,48.38,-4.62,51.8,87,20,8.05,1605979258
712,homestead,US,25.47,-80.48,81.28,65,40,18.34,1605979258
713,kutum,SD,14.2,24.67,71.87,25,9,13.51,1605979194
714,qaanaaq,GL,77.48,-69.36,6.76,91,93,1.1,1605979235
715,sovetskiy,RU,61.36,63.58,24.78,94,90,9.22,1605979202
716,vaini,TO,-21.2,-175.2,73.4,88,75,4.7,1605979167
717,cabo san lucas,MX,22.89,-109.91,82.29,32,5,5.28,1605978603
718,barrow,US,71.29,-156.79,10.4,85,1,12.75,1605979249
719,college,US,64.86,-147.8,-17.32,68,1,4.45,1605979259
720,vardo,NO,70.37,31.11,34.74,81,100,24.29,1605978677
721,shakiso,ET,5.75,38.92,59.88,72,9,2.73,1605979259
722,vaitape,PF,-16.52,-151.75,80.56,70,45,8.43,1605979202
723,khatanga,RU,71.97,102.5,20.26,97,100,12.48,1605979168
724,mondlo,ZA,-27.98,30.72,67.51,80,100,13.49,1605979260
725,vaini,TO,-21.2,-175.2,73.4,88,75,4.7,1605979167
726,buenos aires,AR,-34.61,-58.38,79.3,53,75,6.93,1605979205
727,punta arenas,CL,-53.15,-70.92,60.8,48,0,16.11,1605979155
728,thinadhoo,MV,0.53,72.93,82.92,73,78,8.61,1605979261
729,punta arenas,CL,-53.15,-70.92,60.8,48,0,16.11,1605979155
730,punta arenas,CL,-53.15,-70.92,60.8,48,0,16.11,1605979155
731,meulaboh,ID,4.14,96.13,74.03,94,100,4.9,1605979123
732,hithadhoo,MV,-0.6,73.08,82.65,76,95,9.48,1605979262
733,jiangkou,CN,25.49,119.2,68.0,88,75,4.47,1605979263
734,darnah,LY,32.77,22.64,63.55,60,0,6.76,1605979263
735,rikitea,PF,-23.12,-134.97,72.97,63,3,3.76,1605979169
736,shakawe,BW,-18.37,21.85,80.4,53,59,2.01,1605979264
737,rikitea,PF,-23.12,-134.97,72.97,63,3,3.76,1605979169
738,busselton,AU,-33.65,115.33,53.89,72,23,9.84,1605979208
739,berlevag,NO,70.86,29.09,30.27,92,100,22.5,1605979264
740,khatanga,RU,71.97,102.5,20.26,97,100,12.48,1605979168
741,barrow,US,71.29,-156.79,10.4,85,1,12.75,1605979249
742,jalu,LY,29.03,21.55,64.56,56,37,5.59,1605979230
743,hermanus,ZA,-34.42,19.23,64.0,84,83,5.99,1605979120
744,dicabisagan,PH,17.08,122.42,76.91,83,34,5.88,1605979265
745,rikitea,PF,-23.12,-134.97,72.97,63,3,3.76,1605979169
746,longyearbyen,SJ,78.22,15.64,21.2,73,75,5.82,1605979221
747,albany,US,42.6,-73.97,49.51,46,100,4.0,1605978890
748,vyazma,RU,55.21,34.3,28.22,98,12,4.25,1605979265
749,punta arenas,CL,-53.15,-70.92,60.8,48,0,16.11,1605979155
750,rafaela,AR,-31.25,-61.49,89.8,20,23,7.05,1605979058
751,vaini,TO,-21.2,-175.2,73.4,88,75,4.7,1605979167
752,garowe,SO,8.41,48.48,82.08,27,93,12.86,1605979119
753,ushuaia,AR,-54.8,-68.3,66.2,29,75,9.17,1605978954
754,lerwick,GB,60.15,-1.15,48.2,70,96,42.5,1605979266
755,kaspiyskiy,RU,45.39,47.37,35.69,95,100,21.74,1605979267
756,cosala,MX,24.41,-106.69,87.01,55,0,3.0,1605979267
757,dikson,RU,73.51,80.55,17.69,96,93,18.12,1605979186
758,burnie,AU,-41.07,145.92,55.99,90,94,8.99,1605979267
759,le port,RE,-20.94,55.29,74.32,73,0,11.41,1605979211
760,rikitea,PF,-23.12,-134.97,72.97,63,3,3.76,1605979169
761,pionerskiy,RU,54.95,20.23,37.18,80,0,13.42,1605979268
762,vestmanna,FO,62.16,-7.17,42.8,75,100,35.57,1605979268
763,saskylakh,RU,71.92,114.08,-1.75,90,75,13.18,1605979268
764,mataura,NZ,-46.19,168.86,48.0,79,99,5.99,1605979176
765,peringat,MY,6.03,102.28,78.4,94,20,2.55,1605979268
766,banda aceh,ID,5.56,95.32,79.25,81,100,10.78,1605978693
767,vaini,TO,-21.2,-175.2,73.4,88,75,4.7,1605979167
768,mar del plata,AR,-38.0,-57.56,71.6,68,75,16.11,1605979159
769,touros,BR,-5.2,-35.46,86.0,62,75,14.99,1605979003
770,tuktoyaktuk,CA,69.45,-133.04,15.8,92,90,13.87,1605979223
771,airai,TL,-8.93,125.41,61.2,99,18,1.74,1605979270
772,rikitea,PF,-23.12,-134.97,72.97,63,3,3.76,1605979169
773,bonfim,BR,3.08,-59.95,90.5,52,24,4.36,1605979211
774,kamaishi,JP,39.27,141.88,44.06,69,51,5.61,1605979270
775,busselton,AU,-33.65,115.33,53.89,72,23,9.84,1605979208
776,mar del plata,AR,-38.0,-57.56,71.6,68,75,16.11,1605979159
777,qaanaaq,GL,77.48,-69.36,6.76,91,93,1.1,1605979235
778,crotone,IT,39.09,17.12,50.0,100,40,23.04,1605979270
779,east london,ZA,-33.02,27.91,82.4,51,0,6.93,1605979224
780,albany,US,42.6,-73.97,49.51,46,100,4.0,1605978890
781,airai,TL,-8.93,125.41,61.2,99,18,1.74,1605979270
782,vostok,RU,46.49,135.88,14.2,97,100,9.55,1605979271
783,banda aceh,ID,5.56,95.32,79.25,81,100,10.78,1605978693
784,chuy,UY,-33.7,-53.46,69.22,50,63,9.37,1605979212
785,tasiilaq,GL,65.61,-37.64,28.4,63,20,12.75,1605979201
786,santiago de cao,PE,-7.96,-79.24,69.8,68,84,16.11,1605979271
787,tessalit,ML,20.2,1.01,78.73,16,56,4.25,1605978688
788,rikitea,PF,-23.12,-134.97,72.97,63,3,3.76,1605979169
789,rikitea,PF,-23.12,-134.97,72.97,63,3,3.76,1605979169
790,lasem,ID,-6.69,111.45,81.79,74,67,2.53,1605979272
791,avarua,CK,-21.21,-159.78,71.6,100,100,3.36,1605979162
792,atuona,PF,-9.8,-139.03,77.0,74,15,14.81,1605979166
793,vaini,TO,-21.2,-175.2,73.4,88,75,4.7,1605979167
794,urdoma,RU,61.75,48.54,27.28,97,27,7.27,1605979272
795,hilo,US,19.73,-155.09,71.15,88,90,8.25,1605979169
796,hermanus,ZA,-34.42,19.23,64.0,84,83,5.99,1605979120
797,tsumeb,NA,-19.23,17.72,80.89,49,97,3.83,1605979274
798,havelock,US,34.88,-76.9,69.04,52,1,4.7,1605978984
799,busselton,AU,-33.65,115.33,53.89,72,23,9.84,1605979208
800,hasaki,JP,35.73,140.83,41.52,93,20,6.76,1605979184
801,severo-kurilsk,RU,50.68,156.12,30.76,92,90,14.07,1605979196
802,leshukonskoye,RU,64.9,45.76,32.25,97,99,8.57,1605979276
803,painesville,US,41.72,-81.25,44.71,71,90,8.05,1605979203
804,ak-dovurak,RU,51.18,90.6,11.86,90,100,1.21,1605979278
805,rikitea,PF,-23.12,-134.97,72.97,63,3,3.76,1605979169
806,osmena,PH,10.52,119.93,83.39,79,0,20.36,1605979278
807,innerleithen,GB,55.62,-3.06,43.7,52,56,5.01,1605979278
808,inzer,RU,54.22,57.56,17.44,86,22,1.16,1605979278
809,hermanus,ZA,-34.42,19.23,64.0,84,83,5.99,1605979120
810,walvis bay,NA,-22.96,14.51,67.1,60,0,12.75,1605979138
811,saint-philippe,RE,-21.36,55.77,74.16,64,0,3.36,1605979230
812,zhongshu,CN,24.52,103.77,52.07,83,0,4.81,1605979278
813,atuona,PF,-9.8,-139.03,77.0,74,15,14.81,1605979166
814,kazanskaya,RU,45.41,40.44,39.13,89,74,6.13,1605979279
815,thompson,CA,55.74,-97.86,10.4,85,75,5.82,1605979205
816,taoudenni,ML,22.68,-3.98,80.28,19,100,7.56,1605979279
817,punta arenas,CL,-53.15,-70.92,60.8,48,0,16.11,1605979155
818,tiksi,RU,71.69,128.87,-4.36,90,0,8.88,1605979279
819,chuy,UY,-33.7,-53.46,69.22,50,63,9.37,1605979212
820,lagoa,PT,39.05,-27.98,63.01,85,100,12.88,1605979215
821,fukue,JP,32.69,128.84,64.11,64,46,4.12,1605979280
822,huarmey,PE,-10.07,-78.15,70.9,65,78,10.76,1605979280
823,asandh,IN,29.52,76.6,60.85,33,0,6.29,1605979280
824,ushuaia,AR,-54.8,-68.3,66.2,29,75,9.17,1605978954
825,yarada,IN,17.65,83.27,80.6,83,40,2.24,1605979224
826,teya,RU,60.38,92.63,26.26,95,98,11.59,1605979280
827,ushuaia,AR,-54.8,-68.3,66.2,29,75,9.17,1605978954
828,mataura,NZ,-46.19,168.86,48.0,79,99,5.99,1605979176
829,rikitea,PF,-23.12,-134.97,72.97,63,3,3.76,1605979169
830,malanje,AO,-9.54,16.34,69.4,91,100,1.57,1605979167
831,ushuaia,AR,-54.8,-68.3,66.2,29,75,9.17,1605978954
832,kologriv,RU,58.83,44.32,30.34,97,100,7.83,1605979281
833,vaini,TO,-21.2,-175.2,73.4,88,75,4.7,1605979167
834,cidreira,BR,-30.18,-50.21,68.94,54,22,9.15,1605979254
835,norman wells,CA,65.28,-126.83,-20.2,75,20,2.24,1605979240
836,gobabis,NA,-22.45,18.97,84.2,32,77,10.29,1605979281
837,mataura,NZ,-46.19,168.86,48.0,79,99,5.99,1605979176
838,albany,US,42.6,-73.97,49.51,46,100,4.0,1605978890
839,rawson,AR,-43.3,-65.1,73.85,35,100,9.93,1605979255
840,college,US,64.86,-147.8,-17.32,68,1,4.45,1605979259
841,kodiak,US,57.79,-152.41,39.2,60,75,16.11,1605979188
842,sitka,US,57.05,-135.33,42.8,70,90,25.28,1605979282
843,misratah,LY,32.38,15.09,66.88,56,38,5.93,1605979072
844,saint george,US,37.1,-113.58,55.58,35,0,2.3,1605979236
845,chuy,UY,-33.7,-53.46,69.22,50,63,9.37,1605979212
846,poso,ID,-1.4,120.75,82.99,72,70,4.38,1605979160
847,vaini,TO,-21.2,-175.2,73.4,88,75,4.7,1605979167
848,ibra,OM,22.69,58.53,62.56,47,0,2.64,1605979283
849,nouadhibou,MR,20.93,-17.03,82.4,42,100,6.93,1605979235
850,hilo,US,19.73,-155.09,71.15,88,90,8.25,1605979169
851,ponta delgada,PT,37.73,-25.67,66.2,72,20,10.29,1605979241
852,coihaique,CL,-45.58,-72.07,50.88,82,100,5.86,1605979158
853,hermanus,ZA,-34.42,19.23,64.0,84,83,5.99,1605979120
854,talnakh,RU,69.49,88.4,21.2,92,75,13.42,1605979283
855,roquetas de mar,ES,36.76,-2.61,62.82,63,20,11.41,1605979284
856,grajau,BR,-5.82,-46.14,90.91,52,29,3.56,1605979284
857,mahibadhoo,MV,3.78,72.97,83.32,73,64,8.21,1605979284
858,lata,PT,40.16,-8.33,64.47,58,0,2.17,1605979284
859,ferme-neuve,CA,46.7,-75.45,32.0,87,53,6.93,1605979284
860,bima,ID,-8.47,118.72,78.6,80,17,2.39,1605979284
861,lasa,IT,46.62,10.7,34.74,46,5,2.24,1605979284
862,uvira,CD,-3.41,29.15,73.4,88,75,2.24,1605979284
863,vaini,TO,-21.2,-175.2,73.4,88,75,4.7,1605979167
864,albany,US,42.6,-73.97,49.51,46,100,4.0,1605978890
865,pevek,RU,69.7,170.31,10.53,96,100,4.85,1605979285
866,sur,OM,22.57,59.53,72.77,50,0,5.37,1605979160
867,puerto ayora,EC,-0.74,-90.35,75.07,69,75,11.41,1605979050
868,bambous virieux,MU,-20.34,57.76,72.73,88,40,5.82,1605979258
869,bengkulu,ID,-3.8,102.27,77.11,90,100,7.47,1605979286
870,kutum,SD,14.2,24.67,71.87,25,9,13.51,1605979194
871,vaini,TO,-21.2,-175.2,73.4,88,75,4.7,1605979167
872,lebu,CL,-37.62,-73.65,58.28,71,99,12.46,1605979183
873,pacific grove,US,36.62,-121.92,51.66,65,1,5.82,1605979090
874,portland,US,45.52,-122.68,38.32,93,90,4.7,1605978635
875,khatanga,RU,71.97,102.5,20.26,97,100,12.48,1605979168
876,hami,CN,42.8,93.45,16.92,73,0,2.84,1605979152
877,boa vista,BR,2.82,-60.67,95.0,41,75,5.82,1605979254
878,nhulunbuy,AU,-12.23,136.77,77.0,78,12,8.01,1605979288
879,new norfolk,AU,-42.78,147.06,56.52,65,100,1.63,1605979196
880,kattivakkam,IN,13.22,80.32,78.8,83,20,7.11,1605979160
881,eureka,US,40.8,-124.16,38.32,100,1,3.36,1605979030
882,tuy hoa,VN,13.08,109.3,76.28,87,76,4.94,1605979289
883,avera,US,33.19,-82.53,70.7,49,1,4.7,1605979289
884,goderich,CA,43.75,-81.72,39.2,60,100,11.41,1605979289
885,alappuzha,IN,9.49,76.33,79.97,73,5,1.99,1605979289
886,sao gabriel da cachoeira,BR,-0.13,-67.09,85.64,70,84,1.43,1605979289
887,hermanus,ZA,-34.42,19.23,64.0,84,83,5.99,1605979120
888,cidreira,BR,-30.18,-50.21,68.94,54,22,9.15,1605979254
889,ushuaia,AR,-54.8,-68.3,66.2,29,75,9.17,1605978954
890,hamilton,US,39.18,-84.53,46.02,87,90,9.17,1605979031
891,cidreira,BR,-30.18,-50.21,68.94,54,22,9.15,1605979254
892,punta arenas,CL,-53.15,-70.92,60.8,48,0,16.11,1605979155
893,punta arenas,CL,-53.15,-70.92,60.8,48,0,16.11,1605979155
894,imbituba,BR,-28.24,-48.67,73.4,69,75,12.75,1605979291
895,faanui,PF,-16.48,-151.75,79.72,72,48,8.61,1605979292
896,port elizabeth,ZA,-33.92,25.57,73.4,49,0,17.22,1605979000
897,plettenberg bay,ZA,-34.05,23.37,68.29,69,3,15.28,1605979201
898,hobart,AU,-42.88,147.33,57.24,72,90,6.93,1605978902
899,udachnyy,RU,66.42,112.4,6.8,84,90,6.71,1605979212
900,victoria,HK,22.29,114.16,71.67,87,45,1.01,1605979099
901,broken hill,AU,-31.95,141.43,80.6,32,97,1.12,1605979172
902,esperance,AU,-33.87,121.9,51.8,100,40,3.36,1605979187
903,esperance,AU,-33.87,121.9,51.8,100,40,3.36,1605979187
904,kapaa,US,22.08,-159.32,76.24,88,90,20.8,1605979157
905,punta arenas,CL,-53.15,-70.92,60.8,48,0,16.11,1605979155
906,bengkulu,ID,-3.8,102.27,77.11,90,100,7.47,1605979286
907,najran,SA,17.49,44.13,71.6,30,0,4.7,1605979295
908,jamestown,US,42.1,-79.24,39.36,74,90,10.29,1605978823
909,provideniya,RU,64.38,-173.3,29.48,96,100,29.86,1605979190
910,dikson,RU,73.51,80.55,17.69,96,93,18.12,1605979186
911,mpanda,TZ,-6.37,31.04,70.56,85,94,2.84,1605979296
912,pisco,PE,-13.7,-76.22,66.54,77,35,10.29,1605979296
913,arvika,SE,59.66,12.59,44.6,93,80,8.05,1605979296
914,mar del plata,AR,-38.0,-57.56,71.6,68,75,16.11,1605979159
915,qaanaaq,GL,77.48,-69.36,6.76,91,93,1.1,1605979235
916,atuona,PF,-9.8,-139.03,77.0,74,15,14.81,1605979166
917,salinopolis,BR,-0.61,-47.36,85.66,63,2,10.83,1605979297
918,port alfred,ZA,-33.59,26.89,78.08,54,69,7.54,1605979180
919,sagua la grande,CU,22.81,-80.08,78.8,83,75,18.34,1605979297
920,zomba,MW,-15.39,35.32,78.17,53,33,5.37,1605979297
921,mar del plata,AR,-38.0,-57.56,71.6,68,75,16.11,1605979159
922,pilar,BR,-9.6,-35.96,87.8,55,40,19.46,1605979298
923,quepos,CR,9.42,-84.17,75.97,64,75,9.17,1605979298
924,pacific grove,US,36.62,-121.92,51.66,65,1,5.82,1605979090
925,dicabisagan,PH,17.08,122.42,76.91,83,34,5.88,1605979265
926,srednekolymsk,RU,67.45,153.68,2.46,94,100,5.79,1605979256
927,iquitos,PE,-3.75,-73.25,77.0,88,90,3.36,1605979299
928,punta arenas,CL,-53.15,-70.92,60.8,48,0,16.11,1605979155
929,salalah,OM,17.02,54.09,80.6,57,0,5.82,1605979174
930,carnarvon,AU,-24.87,113.63,69.8,88,1,23.04,1605979184
931,cherskiy,RU,68.75,161.3,6.03,95,100,3.78,1605979256
932,puerto ayora,EC,-0.74,-90.35,75.07,69,75,11.41,1605979050
933,talnakh,RU,69.49,88.4,21.2,92,75,13.42,1605979283
934,mataura,NZ,-46.19,168.86,48.0,79,99,5.99,1605979176
935,cape town,ZA,-33.93,18.42,66.67,68,40,9.17,1605979185
936,ostersund,SE,63.18,14.64,37.62,82,90,10.29,1605979144
937,jizan,SA,17.33,42.67,84.2,70,0,5.82,1605979261
938,vuktyl,RU,63.86,57.31,29.48,97,100,12.57,1605979300
939,busselton,AU,-33.65,115.33,53.89,72,23,9.84,1605979208
940,svetlogorsk,BY,52.63,29.73,30.78,97,0,4.81,1605979300
941,puerto ayora,EC,-0.74,-90.35,75.07,69,75,11.41,1605979050
942,batesville,US,35.77,-91.64,64.47,82,40,3.36,1605979228
943,ushuaia,AR,-54.8,-68.3,66.2,29,75,9.17,1605978954
944,tautira,PF,-17.73,-149.15,78.8,74,20,1.12,1605979301
945,riyadh,SA,24.69,46.72,77.0,27,0,5.82,1605979127
946,vaini,TO,-21.2,-175.2,73.4,88,75,4.7,1605979167
947,mataura,NZ,-46.19,168.86,48.0,79,99,5.99,1605979176
948,chokurdakh,RU,70.63,147.92,-1.44,93,100,3.8,1605979301
949,butaritari,KI,3.07,172.79,81.45,77,92,15.84,1605979174
950,port hardy,CA,50.7,-127.42,43.5,87,75,16.11,1605979302
951,pathalgaon,IN,22.57,83.47,58.15,37,0,5.08,1605979302
952,ushuaia,AR,-54.8,-68.3,66.2,29,75,9.17,1605978954
953,koungou,YT,-12.73,45.2,82.4,78,0,8.05,1605979302
954,yarega,RU,63.44,53.58,28.92,95,93,10.36,1605979302
955,mar del plata,AR,-38.0,-57.56,71.6,68,75,16.11,1605979159
956,mach,PK,29.86,67.33,55.72,32,6,7.29,1605979302
957,qasigiannguit,GL,68.82,-51.19,23.0,67,40,18.34,1605979302
958,nanortalik,GL,60.14,-45.24,27.07,90,29,8.79,1605979191
959,lata,PT,40.16,-8.33,64.47,58,0,2.17,1605979284
960,new norfolk,AU,-42.78,147.06,56.52,65,100,1.63,1605979196
961,portland,US,45.52,-122.68,38.32,93,90,4.7,1605978635
962,narsaq,GL,60.92,-46.05,15.8,61,20,6.93,1605979199
963,cayenne,GF,4.93,-52.33,82.4,83,90,9.17,1605979303
964,yeghegnavan,AM,39.84,44.63,46.4,87,40,2.24,1605979303
965,punta arenas,CL,-53.15,-70.92,60.8,48,0,16.11,1605979155
966,ushuaia,AR,-54.8,-68.3,66.2,29,75,9.17,1605978954
967,talnakh,RU,69.49,88.4,21.2,92,75,13.42,1605979283
968,pevek,RU,69.7,170.31,10.53,96,100,4.85,1605979285
969,cape town,ZA,-33.93,18.42,66.67,68,40,9.17,1605979185
970,butaritari,KI,3.07,172.79,81.45,77,92,15.84,1605979174
971,bredasdorp,ZA,-34.53,20.04,66.2,63,35,11.41,1605979304
972,pierre,US,44.37,-100.35,33.8,80,90,6.93,1605979304
973,darnetal,FR,49.45,1.15,49.6,87,90,9.17,1605979304
974,hilo,US,19.73,-155.09,71.15,88,90,8.25,1605979169
975,chokurdakh,RU,70.63,147.92,-1.44,93,100,3.8,1605979301
976,castro,BR,-24.79,-50.01,74.05,47,37,6.42,1605979220
977,butaritari,KI,3.07,172.79,81.45,77,92,15.84,1605979174
978,norman wells,CA,65.28,-126.83,-20.2,75,20,2.24,1605979240
979,pucara,PE,-15.98,-71.46,69.8,16,0,10.29,1605979305
980,rikitea,PF,-23.12,-134.97,72.97,63,3,3.76,1605979169
981,albany,US,42.6,-73.97,49.51,46,100,4.0,1605978890
982,ponta delgada,PT,37.73,-25.67,66.2,72,20,10.29,1605979241
983,dali,CN,25.7,100.18,47.55,83,0,3.98,1605979306
984,palmer,US,42.16,-72.33,56.01,35,75,13.87,1605979306
985,pocone,BR,-16.26,-56.62,103.24,23,12,0.98,1605979306
986,bluff,NZ,-46.6,168.33,48.0,79,97,5.99,1605979187
987,tucurui,BR,-3.77,-49.67,88.07,62,45,5.41,1605979306
988,saint-leu,RE,-21.15,55.28,74.28,64,0,3.36,1605979307
989,port moresby,PG,-9.44,147.18,76.35,92,100,5.7,1605979307
990,nantucket,US,41.28,-70.1,64.4,55,1,8.05,1605979216
991,cabo san lucas,MX,22.89,-109.91,85.93,32,5,5.28,1605979207
992,somerset,US,40.57,-74.55,64.4,39,1,6.93,1605979308
993,new norfolk,AU,-42.78,147.06,56.52,65,100,1.63,1605979196
994,san angelo,US,31.46,-100.44,71.65,56,75,16.11,1605979140
995,butaritari,KI,3.07,172.79,81.45,77,92,15.84,1605979174
996,plettenberg bay,ZA,-34.05,23.37,68.29,69,3,15.28,1605979201
997,hermanus,ZA,-34.42,19.23,64.0,84,83,5.99,1605979120
998,geraldton,AU,-28.77,114.6,62.6,77,90,14.99,1605979256
999,grand gaube,MU,-20.01,57.66,73.99,70,36,4.0,1605979309
1000,grindavik,IS,63.84,-22.43,33.8,100,75,8.05,1605979309
1001,shagonar,RU,51.53,92.8,11.53,92,100,2.59,1605979309
1002,asau,RO,46.43,26.4,30.99,95,92,3.27,1605979309
1003,flinders,AU,-34.58,150.86,63.57,84,58,1.01,1605979311
1004,novi sanzhary,UA,49.34,34.31,31.55,99,100,4.12,1605979311
1005,jamestown,US,42.1,-79.24,39.36,74,90,10.29,1605978823
1006,saint george,US,37.1,-113.58,55.58,35,0,2.3,1605979236
1007,mataura,NZ,-46.19,168.86,48.0,79,99,5.99,1605979176
1008,arraial do cabo,BR,-22.97,-42.03,77.77,61,40,8.05,1605979051
1009,bambanglipuro,ID,-7.95,110.28,79.66,83,98,5.37,1605979311
1010,tucuman,AR,-26.82,-65.22,87.8,38,0,4.7,1605979230
1011,narsaq,GL,60.92,-46.05,15.8,61,20,6.93,1605979199
1012,kapaa,US,22.08,-159.32,76.24,88,90,20.8,1605979157
1013,bluff,NZ,-46.6,168.33,48.0,79,97,5.99,1605979187
1014,keti bandar,PK,24.14,67.45,73.06,43,0,5.3,1605979312
1015,mataura,NZ,-46.19,168.86,48.0,79,99,5.99,1605979176
1016,tuktoyaktuk,CA,69.45,-133.04,15.8,92,90,13.87,1605979223
1017,bluff,NZ,-46.6,168.33,48.0,79,97,5.99,1605979187
1018,ushuaia,AR,-54.8,-68.3,66.2,29,75,9.17,1605978954
1019,port alfred,ZA,-33.59,26.89,78.08,54,69,7.54,1605979180
1020,masterton,NZ,-40.96,175.66,53.82,82,60,1.99,1605979313
1021,ushuaia,AR,-54.8,-68.3,66.2,29,75,9.17,1605978954
1022,georgetown,MY,5.41,100.34,77.65,94,40,3.36,1605979233
1023,college,US,64.86,-147.8,-17.32,68,1,4.45,1605979259
1024,vaini,TO,-21.2,-175.2,73.4,88,75,4.7,1605979167
1025,iqaluit,CA,63.75,-68.51,8.6,71,20,8.05,1605979243
1026,sao filipe,CV,14.9,-24.5,78.78,69,59,9.84,1605979313
1027,port alfred,ZA,-33.59,26.89,78.08,54,69,7.54,1605979180
1028,punta arenas,CL,-53.15,-70.92,60.8,48,0,16.11,1605979155
1029,georgetown,MY,5.41,100.34,77.65,94,40,3.36,1605979233
1030,butaritari,KI,3.07,172.79,81.45,77,92,15.84,1605979174
1031,pionerskiy,RU,54.95,20.23,37.18,80,0,13.42,1605979268
1032,kabin buri,TH,13.95,101.72,76.87,88,51,3.13,1605979314
1033,sekoma,BW,-24.4,23.88,73.94,64,97,12.19,1605979315
1034,busselton,AU,-33.65,115.33,53.89,72,23,9.84,1605979208
1035,kapaa,US,22.08,-159.32,76.24,88,90,20.8,1605979157
1036,geraldton,AU,-28.77,114.6,62.6,77,90,14.99,1605979256
1037,ahipara,NZ,-35.17,173.17,58.44,82,76,8.59,1605979315
1038,puerto ayora,EC,-0.74,-90.35,75.07,69,75,11.41,1605979050
1039,fairbanks,US,64.84,-147.72,-17.34,68,1,4.34,1605979215
1040,chokurdakh,RU,70.63,147.92,-1.44,93,100,3.8,1605979301
1041,ushuaia,AR,-54.8,-68.3,66.2,29,75,9.17,1605978954
1042,vaini,TO,-21.2,-175.2,73.4,88,75,4.7,1605979167
1043,bredasdorp,ZA,-34.53,20.04,66.2,63,35,11.41,1605979304
1044,ejura,GH,7.39,-1.36,87.08,44,79,1.36,1605979316
1045,kruisfontein,ZA,-34.0,24.73,75.99,34,26,7.0,1605979046
1046,vaini,TO,-21.2,-175.2,73.4,88,75,4.7,1605979167
1047,cordoba,AR,-31.41,-64.18,79.66,47,20,11.41,1605979317
1048,jacareacanga,BR,-6.22,-57.75,88.54,61,83,1.79,1605979317
1049,iqaluit,CA,63.75,-68.51,8.6,71,20,8.05,1605979243
1050,severo-kurilsk,RU,50.68,156.12,30.76,92,90,14.07,1605979196
1051,severo-kurilsk,RU,50.68,156.12,30.76,92,90,14.07,1605979196
1052,san lazaro,BZ,18.04,-88.66,73.4,100,90,11.41,1605979317
1053,clyde river,CA,70.47,-68.59,10.4,85,90,9.17,1605979317
1054,vaini,TO,-21.2,-175.2,73.4,88,75,4.7,1605979167
1055,albany,US,42.6,-73.97,49.51,46,100,4.0,1605978890
1056,bar harbor,US,44.39,-68.2,52.32,40,1,9.17,1605979318
1057,carnarvon,AU,-24.87,113.63,69.8,88,1,23.04,1605979184
1058,port elizabeth,ZA,-33.92,25.57,73.4,49,0,17.22,1605979000
1059,rikitea,PF,-23.12,-134.97,72.97,63,3,3.76,1605979169
1060,bilibino,RU,68.05,166.44,1.78,90,100,0.83,1605979318
1061,lompoc,US,34.64,-120.46,56.17,54,1,4.7,1605979318
1062,kodiak,US,57.79,-152.41,39.2,60,75,16.11,1605979188
1063,meulaboh,ID,4.14,96.13,74.03,94,100,4.9,1605979123
1064,thompson,CA,55.74,-97.86,10.4,85,75,5.82,1605979205
1065,hithadhoo,MV,-0.6,73.08,82.65,76,95,9.48,1605979262
1066,catamarca,AR,-28.47,-65.79,84.81,41,0,1.99,1605979319
1067,brae,GB,60.4,-1.35,48.2,70,100,42.5,1605979320
1068,hangu,CN,39.25,117.79,33.87,80,90,6.71,1605979320
1069,sao filipe,CV,14.9,-24.5,78.78,69,59,9.84,1605979313
1070,arraial do cabo,BR,-22.97,-42.03,77.77,61,40,8.05,1605979051
1071,yerbogachen,RU,61.28,108.01,14.85,95,100,11.36,1605979321
1072,tasiilaq,GL,65.61,-37.64,28.4,63,20,12.75,1605979201
1073,ushuaia,AR,-54.8,-68.3,66.2,29,75,9.17,1605978954
1074,castro,BR,-24.79,-50.01,74.05,47,37,6.42,1605979220
1075,rikitea,PF,-23.12,-134.97,72.97,63,3,3.76,1605979169
1076,tautira,PF,-17.73,-149.15,78.8,74,20,1.12,1605979301
1077,nikolskoye,RU,59.7,30.79,33.24,86,75,11.18,1605978998
1078,avarua,CK,-21.21,-159.78,71.6,100,100,3.36,1605979162
1079,albany,US,42.6,-73.97,49.51,46,100,4.0,1605978890
1080,esperance,AU,-33.87,121.9,51.8,100,40,3.36,1605979187
1081,mayo,US,38.89,-76.51,63.82,72,90,4.34,1605979323
1082,ushuaia,AR,-54.8,-68.3,66.2,29,75,9.17,1605978954
1083,kyaikto,MM,17.3,97.02,70.92,55,52,6.85,1605979324
1084,busselton,AU,-33.65,115.33,53.89,72,23,9.84,1605979208
1085,busselton,AU,-33.65,115.33,53.89,72,23,9.84,1605979208
1086,saldanha,ZA,-33.01,17.94,64.4,72,77,14.99,1605979219
1087,rikitea,PF,-23.12,-134.97,72.97,63,3,3.76,1605979169
1088,beyneu,KZ,45.32,55.2,30.31,88,77,16.64,1605979325
1089,margate,GB,51.38,1.39,53.01,72,96,1.99,1605979196
1090,amboasary,MG,-25.03,46.38,71.6,73,75,11.41,1605979326
1091,nogliki,RU,51.83,143.17,23.9,96,100,12.33,1605979326
1092,punta cardon,VE,11.66,-70.22,85.17,69,93,19.1,1605979326
1093,punta arenas,CL,-53.15,-70.92,60.8,48,0,16.11,1605979155
